{"type":"FeatureCollection","features":[{"type":"Feature","properties":{"title":"NOAA Pacific Services Center","marker-size":"small","marker-color":"#336699","office":"CSC","index":55,"":""},"geometry":{"type":"Point","coordinates":[-157.863261,21.307268]}},{"type":"Feature","properties":{"title":"NOAA Coastal Services Center","marker-size":"small","marker-color":"#336699","office":"CSC","index":151,"":""},"geometry":{"type":"Point","coordinates":[-79.944487,32.849596]}},{"type":"Feature","properties":{"title":"National Geophysical Data Center (NGDC)","marker-size":"small","marker-color":"#336699","office":"NESDIS","index":32,"":""},"geometry":{"type":"Point","coordinates":[-105.261499,39.996905]}},{"type":"Feature","properties":{"title":"National Coastal Data Development Center (NCDDC)","marker-size":"small","marker-color":"#336699","office":"NESDIS","index":101,"":""},"geometry":{"type":"Point","coordinates":[-89.614743,30.373145]}},{"type":"Feature","properties":{"title":"National Climatic Data Center (NCDC)","marker-size":"small","marker-color":"#336699","office":"NESDIS","index":111,"":""},"geometry":{"type":"Point","coordinates":[-78.68127,35.771351]}},{"type":"Feature","properties":{"title":"Kodiak Laboratory","marker-size":"small","marker-color":"#336699","office":"NMFS","index":3,"":""},"geometry":{"type":"Point","coordinates":[-152.396668,57.781495]}},{"type":"Feature","properties":{"title":"Auke Bay Laboratories","marker-size":"small","marker-color":"#336699","office":"NMFS","index":4,"":""},"geometry":{"type":"Point","coordinates":[-134.773,58.3915]}},{"type":"Feature","properties":{"title":"Ted Stevens Marine Research Institute (Lena Point)","marker-size":"small","marker-color":"#336699","office":"NMFS","index":5,"":"#00b8ff"},"geometry":{"type":"Point","coordinates":[-134.773,58.3915]}},{"type":"Feature","properties":{"title":"Fisheries Ecology Division","marker-size":"small","marker-color":"#336699","office":"NMFS","index":23,"":""},"geometry":{"type":"Point","coordinates":[-122.06245,36.955102]}},{"type":"Feature","properties":{"title":"Southwest Fisheries Science Center","marker-size":"small","marker-color":"#336699","office":"NMFS","index":26,"":""},"geometry":{"type":"Point","coordinates":[-117.241667,32.89294]}},{"type":"Feature","properties":{"title":"Environmental Research Division","marker-size":"small","marker-color":"#336699","office":"NMFS","index":29,"":""},"geometry":{"type":"Point","coordinates":[-121.934816,36.631505]}},{"type":"Feature","properties":{"title":"Milford CT Laboratory","marker-size":"small","marker-color":"#336699","office":"NMFS","index":36,"":""},"geometry":{"type":"Point","coordinates":[-73.054036,41.211709]}},{"type":"Feature","properties":{"title":"National Systematics Laboratory","marker-size":"small","marker-color":"#336699","office":"NMFS","index":37,"":""},"geometry":{"type":"Point","coordinates":[-97.320267,38.054661]}},{"type":"Feature","properties":{"title":"Panama City, FL Laboratory","marker-size":"small","marker-color":"#336699","office":"NMFS","index":39,"":""},"geometry":{"type":"Point","coordinates":[-85.718662,30.148191]}},{"type":"Feature","properties":{"title":"Southeast Fisheries Science Center ","marker-size":"small","marker-color":"#336699","office":"NMFS","index":43,"":""},"geometry":{"type":"Point","coordinates":[-80.161465,25.733986]}},{"type":"Feature","properties":{"title":"Pacific Islands Fisheries Science Center ","marker-size":"small","marker-color":"#336699","office":"NMFS","index":56,"":""},"geometry":{"type":"Point","coordinates":[-157.813723,21.296038]}},{"type":"Feature","properties":{"title":"Lafayette, LA Laboratory","marker-size":"small","marker-color":"#336699","office":"NMFS","index":72,"":""},"geometry":{"type":"Point","coordinates":[-92.044485,30.22291]}},{"type":"Feature","properties":{"title":"Northeast Fisheries Science Center ","marker-size":"small","marker-color":"#336699","office":"NMFS","index":77,"":""},"geometry":{"type":"Point","coordinates":[-70.646266,42.628275]}},{"type":"Feature","properties":{"title":"Woods Hole MA Laboratory","marker-size":"small","marker-color":"#336699","office":"NMFS","index":79,"":""},"geometry":{"type":"Point","coordinates":[-70.673362,41.525384]}},{"type":"Feature","properties":{"title":"Orono Maine Field Station","marker-size":"small","marker-color":"#336699","office":"NMFS","index":84,"":""},"geometry":{"type":"Point","coordinates":[-70.254314,43.89372]}},{"type":"Feature","properties":{"title":"Stennis, MS Laboratory","marker-size":"small","marker-color":"#336699","office":"NMFS","index":100,"":""},"geometry":{"type":"Point","coordinates":[-90.079776,32.318964]}},{"type":"Feature","properties":{"title":"Pascagoula, MS Laboratory","marker-size":"small","marker-color":"#336699","office":"NMFS","index":102,"":""},"geometry":{"type":"Point","coordinates":[-89.614743,30.373145]}},{"type":"Feature","properties":{"title":"Beaufort, NC Laboratory","marker-size":"small","marker-color":"#336699","office":"NMFS","index":108,"":""},"geometry":{"type":"Point","coordinates":[-77.912304,34.276813]}},{"type":"Feature","properties":{"title":"James J. Howard Marine Sciences Laboratory","marker-size":"small","marker-color":"#336699","office":"NMFS","index":117,"":""},"geometry":{"type":"Point","coordinates":[-100.692016,41.127442]}},{"type":"Feature","properties":{"title":"Point Adams Research Station","marker-size":"small","marker-color":"#336699","office":"NMFS","index":138,"":""},"geometry":{"type":"Point","coordinates":[-123.947381,46.19987]}},{"type":"Feature","properties":{"title":"Hatfield Marine Science Center (Newport)","marker-size":"small","marker-color":"#336699","office":"NMFS","index":141,"":""},"geometry":{"type":"Point","coordinates":[-124.04652,44.624526]}},{"type":"Feature","properties":{"title":"Newport Research Station","marker-size":"small","marker-color":"#336699","office":"NMFS","index":142,"":""},"geometry":{"type":"Point","coordinates":[-124.04652,44.624526]}},{"type":"Feature","properties":{"title":"Narragansett RI Laboratory","marker-size":"small","marker-color":"#336699","office":"NMFS","index":148,"":""},"geometry":{"type":"Point","coordinates":[-71.423072,41.493429]}},{"type":"Feature","properties":{"title":"Galveston, TX Laboratory","marker-size":"small","marker-color":"#336699","office":"NMFS","index":163,"":""},"geometry":{"type":"Point","coordinates":[-94.81392,29.276225]}},{"type":"Feature","properties":{"title":"Alaska Fisheries Science Center ","marker-size":"small","marker-color":"#336699","office":"NMFS","index":177,"":""},"geometry":{"type":"Point","coordinates":[-122.264571,47.684989]}},{"type":"Feature","properties":{"title":"Western Regional Center Sand Point Facility (Seattle)","marker-size":"small","marker-color":"#336699","office":"NMFS","index":178,"":""},"geometry":{"type":"Point","coordinates":[-122.264571,47.684989]}},{"type":"Feature","properties":{"title":"Manchester Research Station","marker-size":"small","marker-color":"#336699","office":"NMFS","index":181,"":""},"geometry":{"type":"Point","coordinates":[-122.555454,47.56902]}},{"type":"Feature","properties":{"title":"Northwest Fisheries Science Center ","marker-size":"small","marker-color":"#336699","office":"NMFS","index":183,"":""},"geometry":{"type":"Point","coordinates":[-122.305708,47.645556]}},{"type":"Feature","properties":{"title":"Mukilteo Research Station","marker-size":"small","marker-color":"#336699","office":"NMFS","index":185,"":""},"geometry":{"type":"Point","coordinates":[-122.302452,47.948944]}},{"type":"Feature","properties":{"title":"Pasco Research Station","marker-size":"small","marker-color":"#336699","office":"NMFS","index":186,"":""},"geometry":{"type":"Point","coordinates":[-119.058951,46.20923]}},{"type":"Feature","properties":{"title":"Anchorage WFO","marker-size":"small","marker-color":"#00b8ff","office":"NWS","index":1,"":""},"geometry":{"type":"Point","coordinates":[-149.982123,61.159019]}},{"type":"Feature","properties":{"title":"Alaska/Pacific RFC","marker-size":"small","marker-color":"#00b8ff","office":"NWS","index":2,"":""},"geometry":{"type":"Point","coordinates":[-149.982123,61.159019]}},{"type":"Feature","properties":{"title":"Juneau WFO","marker-size":"small","marker-color":"#00b8ff","office":"NWS","index":6,"":""},"geometry":{"type":"Point","coordinates":[-134.570006,58.398688]}},{"type":"Feature","properties":{"title":"Fairbanks WFO","marker-size":"small","marker-color":"#00b8ff","office":"NWS","index":7,"":""},"geometry":{"type":"Point","coordinates":[-147.87928,64.81707]}},{"type":"Feature","properties":{"title":"Birmingham WFO","marker-size":"small","marker-color":"#00b8ff","office":"NWS","index":8,"":""},"geometry":{"type":"Point","coordinates":[-86.782079,33.179559]}},{"type":"Feature","properties":{"title":"Huntsville WFO","marker-size":"small","marker-color":"#00b8ff","office":"NWS","index":9,"":""},"geometry":{"type":"Point","coordinates":[-86.644975,34.724569]}},{"type":"Feature","properties":{"title":"Mobile WFO","marker-size":"small","marker-color":"#00b8ff","office":"NWS","index":10,"":""},"geometry":{"type":"Point","coordinates":[-88.244238,30.68113]}},{"type":"Feature","properties":{"title":"Little Rock WFO","marker-size":"small","marker-color":"#00b8ff","office":"NWS","index":11,"":""},"geometry":{"type":"Point","coordinates":[-92.261234,34.835131]}},{"type":"Feature","properties":{"title":"Pago Pago WFO","marker-size":"small","marker-color":"#00b8ff","office":"NWS","index":13,"":""},"geometry":{"type":"Point","coordinates":[-170.700897,-14.27933]}},{"type":"Feature","properties":{"title":"Phoenix WFO","marker-size":"small","marker-color":"#00b8ff","office":"NWS","index":14,"":""},"geometry":{"type":"Point","coordinates":[-111.952572,33.446653]}},{"type":"Feature","properties":{"title":"Tucson WFO","marker-size":"small","marker-color":"#00b8ff","office":"NWS","index":15,"":""},"geometry":{"type":"Point","coordinates":[-110.955868,32.228214]}},{"type":"Feature","properties":{"title":"Flagstaff WFO","marker-size":"small","marker-color":"#00b8ff","office":"NWS","index":16,"":""},"geometry":{"type":"Point","coordinates":[-111.822115,35.232093]}},{"type":"Feature","properties":{"title":"San Diego WFO","marker-size":"small","marker-color":"#00b8ff","office":"NWS","index":17,"":""},"geometry":{"type":"Point","coordinates":[-117.082638,33.02195]}},{"type":"Feature","properties":{"title":"Los Angeles WFO","marker-size":"small","marker-color":"#00b8ff","office":"NWS","index":18,"":""},"geometry":{"type":"Point","coordinates":[-119.137974,34.207002]}},{"type":"Feature","properties":{"title":"Eureka WFO","marker-size":"small","marker-color":"#00b8ff","office":"NWS","index":24,"":""},"geometry":{"type":"Point","coordinates":[-124.164544,40.808488]}},{"type":"Feature","properties":{"title":"Sacramento WFO","marker-size":"small","marker-color":"#00b8ff","office":"NWS","index":25,"":""},"geometry":{"type":"Point","coordinates":[-121.387257,38.610507]}},{"type":"Feature","properties":{"title":"San Joaquin Valley WFO","marker-size":"small","marker-color":"#00b8ff","office":"NWS","index":27,"":""},"geometry":{"type":"Point","coordinates":[-119.631314,36.313762]}},{"type":"Feature","properties":{"title":"San Francisco Bay Area WFO","marker-size":"small","marker-color":"#00b8ff","office":"NWS","index":28,"":""},"geometry":{"type":"Point","coordinates":[-121.874682,36.597888]}},{"type":"Feature","properties":{"title":"California-Nevada RFC","marker-size":"small","marker-color":"#00b8ff","office":"NWS","index":30,"":""},"geometry":{"type":"Point","coordinates":[-121.387257,38.610507]}},{"type":"Feature","properties":{"title":"Denver/Boulder WFO","marker-size":"small","marker-color":"#00b8ff","office":"NWS","index":31,"":""},"geometry":{"type":"Point","coordinates":[-105.261499,39.996905]}},{"type":"Feature","properties":{"title":"Pueblo WFO","marker-size":"small","marker-color":"#00b8ff","office":"NWS","index":34,"":""},"geometry":{"type":"Point","coordinates":[-104.520314,38.279619]}},{"type":"Feature","properties":{"title":"Grand Junction WFO","marker-size":"small","marker-color":"#00b8ff","office":"NWS","index":35,"":""},"geometry":{"type":"Point","coordinates":[-108.524084,39.118572]}},{"type":"Feature","properties":{"title":"Jacksonville WFO","marker-size":"small","marker-color":"#00b8ff","office":"NWS","index":38,"":""},"geometry":{"type":"Point","coordinates":[-81.702126,30.477088]}},{"type":"Feature","properties":{"title":"Melbourne WFO","marker-size":"small","marker-color":"#00b8ff","office":"NWS","index":40,"":""},"geometry":{"type":"Point","coordinates":[-80.654837,28.113791]}},{"type":"Feature","properties":{"title":"Key West WFO","marker-size":"small","marker-color":"#00b8ff","office":"NWS","index":42,"":""},"geometry":{"type":"Point","coordinates":[-81.78874,24.552886]}},{"type":"Feature","properties":{"title":"Miami WFO","marker-size":"small","marker-color":"#00b8ff","office":"NWS","index":45,"":""},"geometry":{"type":"Point","coordinates":[-80.383975,25.75378]}},{"type":"Feature","properties":{"title":"Tampa Bay Area WFO","marker-size":"small","marker-color":"#00b8ff","office":"NWS","index":46,"":""},"geometry":{"type":"Point","coordinates":[-82.400522,27.705752]}},{"type":"Feature","properties":{"title":"Tallahassee WFO","marker-size":"small","marker-color":"#00b8ff","office":"NWS","index":47,"":""},"geometry":{"type":"Point","coordinates":[-84.299141,30.44631]}},{"type":"Feature","properties":{"title":"Atlanta WFO","marker-size":"small","marker-color":"#00b8ff","office":"NWS","index":48,"":""},"geometry":{"type":"Point","coordinates":[-84.568469,33.360578]}},{"type":"Feature","properties":{"title":"Southeast RFC","marker-size":"small","marker-color":"#00b8ff","office":"NWS","index":49,"":""},"geometry":{"type":"Point","coordinates":[-84.568469,33.360578]}},{"type":"Feature","properties":{"title":"Guam WFO","marker-size":"small","marker-color":"#00b8ff","office":"NWS","index":51,"":""},"geometry":{"type":"Point","coordinates":[144.819878,13.48278]}},{"type":"Feature","properties":{"title":"Honolulu WFO","marker-size":"small","marker-color":"#00b8ff","office":"NWS","index":52,"":""},"geometry":{"type":"Point","coordinates":[-157.816455,21.298651]}},{"type":"Feature","properties":{"title":"Des Moines WFO","marker-size":"small","marker-color":"#00b8ff","office":"NWS","index":57,"":""},"geometry":{"type":"Point","coordinates":[-93.723953,41.735081]}},{"type":"Feature","properties":{"title":"Quad Cities WFO","marker-size":"small","marker-color":"#00b8ff","office":"NWS","index":58,"":""},"geometry":{"type":"Point","coordinates":[-90.581084,41.611008]}},{"type":"Feature","properties":{"title":"Pocatello/Idaho Falls WFO","marker-size":"small","marker-color":"#00b8ff","office":"NWS","index":59,"":""},"geometry":{"type":"Point","coordinates":[-112.588377,42.903733]}},{"type":"Feature","properties":{"title":"Boise WFO","marker-size":"small","marker-color":"#00b8ff","office":"NWS","index":60,"":""},"geometry":{"type":"Point","coordinates":[-116.225439,43.58376]}},{"type":"Feature","properties":{"title":"Chicago WFO","marker-size":"small","marker-color":"#00b8ff","office":"NWS","index":61,"":""},"geometry":{"type":"Point","coordinates":[-88.082475,41.606829]}},{"type":"Feature","properties":{"title":"Central Illinois WFO","marker-size":"small","marker-color":"#00b8ff","office":"NWS","index":62,"":""},"geometry":{"type":"Point","coordinates":[-89.344426,40.150221]}},{"type":"Feature","properties":{"title":"Northern Indiana WFO","marker-size":"small","marker-color":"#00b8ff","office":"NWS","index":63,"":""},"geometry":{"type":"Point","coordinates":[-85.700574,41.357828]}},{"type":"Feature","properties":{"title":"Indianapolis WFO","marker-size":"small","marker-color":"#00b8ff","office":"NWS","index":64,"":""},"geometry":{"type":"Point","coordinates":[-86.280315,39.705848]}},{"type":"Feature","properties":{"title":"Topeka WFO","marker-size":"small","marker-color":"#00b8ff","office":"NWS","index":65,"":""},"geometry":{"type":"Point","coordinates":[-95.631345,39.07203]}},{"type":"Feature","properties":{"title":"Wichita WFO","marker-size":"small","marker-color":"#00b8ff","office":"NWS","index":66,"":""},"geometry":{"type":"Point","coordinates":[-97.443793,37.65479]}},{"type":"Feature","properties":{"title":"Goodland WFO","marker-size":"small","marker-color":"#00b8ff","office":"NWS","index":67,"":""},"geometry":{"type":"Point","coordinates":[-101.698083,39.362705]}},{"type":"Feature","properties":{"title":"Dodge City WFO","marker-size":"small","marker-color":"#00b8ff","office":"NWS","index":68,"":""},"geometry":{"type":"Point","coordinates":[-99.9697,37.75911]}},{"type":"Feature","properties":{"title":"Jackson WFO","marker-size":"small","marker-color":"#00b8ff","office":"NWS","index":69,"":""},"geometry":{"type":"Point","coordinates":[-83.318109,37.580015]}},{"type":"Feature","properties":{"title":"Louisville WFO","marker-size":"small","marker-color":"#00b8ff","office":"NWS","index":70,"":""},"geometry":{"type":"Point","coordinates":[-85.645131,38.114652]}},{"type":"Feature","properties":{"title":"Paducah WFO","marker-size":"small","marker-color":"#00b8ff","office":"NWS","index":71,"":""},"geometry":{"type":"Point","coordinates":[-88.772942,37.068932]}},{"type":"Feature","properties":{"title":"Lake Charles WFO","marker-size":"small","marker-color":"#00b8ff","office":"NWS","index":73,"":""},"geometry":{"type":"Point","coordinates":[-93.219928,30.123745]}},{"type":"Feature","properties":{"title":"Shreveport WFO","marker-size":"small","marker-color":"#00b8ff","office":"NWS","index":74,"":""},"geometry":{"type":"Point","coordinates":[-93.84139,32.445163]}},{"type":"Feature","properties":{"title":"New Orleans/Baton Rouge WFO","marker-size":"small","marker-color":"#00b8ff","office":"NWS","index":75,"":""},"geometry":{"type":"Point","coordinates":[-89.825946,30.3357]}},{"type":"Feature","properties":{"title":"Lower Mississippi RFC","marker-size":"small","marker-color":"#00b8ff","office":"NWS","index":76,"":""},"geometry":{"type":"Point","coordinates":[-89.825946,30.3357]}},{"type":"Feature","properties":{"title":"Boston WFO","marker-size":"small","marker-color":"#00b8ff","office":"NWS","index":80,"":""},"geometry":{"type":"Point","coordinates":[-71.135073,41.955989]}},{"type":"Feature","properties":{"title":"Northeast RFC","marker-size":"small","marker-color":"#00b8ff","office":"NWS","index":81,"":""},"geometry":{"type":"Point","coordinates":[-71.135073,41.955989]}},{"type":"Feature","properties":{"title":"Gray/Portland WFO","marker-size":"small","marker-color":"#00b8ff","office":"NWS","index":83,"":""},"geometry":{"type":"Point","coordinates":[-76.937269,38.980725]}},{"type":"Feature","properties":{"title":"Caribou WFO","marker-size":"small","marker-color":"#00b8ff","office":"NWS","index":85,"":""},"geometry":{"type":"Point","coordinates":[-68.67399,44.885887]}},{"type":"Feature","properties":{"title":"Detroit WFO","marker-size":"small","marker-color":"#00b8ff","office":"NWS","index":86,"":""},"geometry":{"type":"Point","coordinates":[-68.012181,46.86819]}},{"type":"Feature","properties":{"title":"Marquette WFO","marker-size":"small","marker-color":"#00b8ff","office":"NWS","index":88,"":""},"geometry":{"type":"Point","coordinates":[-83.433192,45.067512]}},{"type":"Feature","properties":{"title":"Grand Rapids WFO","marker-size":"small","marker-color":"#00b8ff","office":"NWS","index":90,"":""},"geometry":{"type":"Point","coordinates":[-83.733898,42.217358]}},{"type":"Feature","properties":{"title":"North Central Lower Michigan WFO","marker-size":"small","marker-color":"#00b8ff","office":"NWS","index":91,"":""},"geometry":{"type":"Point","coordinates":[-85.543791,42.892557]}},{"type":"Feature","properties":{"title":"Minneapolis WFO","marker-size":"small","marker-color":"#00b8ff","office":"NWS","index":92,"":""},"geometry":{"type":"Point","coordinates":[-84.700978,44.877607]}},{"type":"Feature","properties":{"title":"North Central RFC","marker-size":"small","marker-color":"#00b8ff","office":"NWS","index":93,"":""},"geometry":{"type":"Point","coordinates":[-93.564432,44.850881]}},{"type":"Feature","properties":{"title":"Duluth WFO","marker-size":"small","marker-color":"#00b8ff","office":"NWS","index":94,"":""},"geometry":{"type":"Point","coordinates":[-93.564432,44.850881]}},{"type":"Feature","properties":{"title":"St. Louis WFO","marker-size":"small","marker-color":"#00b8ff","office":"NWS","index":95,"":""},"geometry":{"type":"Point","coordinates":[-92.209333,46.836027]}},{"type":"Feature","properties":{"title":"Kansas City/Pleasant Hill WFO","marker-size":"small","marker-color":"#00b8ff","office":"NWS","index":96,"":""},"geometry":{"type":"Point","coordinates":[-90.682371,38.699833]}},{"type":"Feature","properties":{"title":"Missouri River Basin RFC","marker-size":"small","marker-color":"#00b8ff","office":"NWS","index":97,"":""},"geometry":{"type":"Point","coordinates":[-94.263326,38.80969]}},{"type":"Feature","properties":{"title":"Springfield WFO","marker-size":"small","marker-color":"#00b8ff","office":"NWS","index":98,"":""},"geometry":{"type":"Point","coordinates":[-94.263326,38.80969]}},{"type":"Feature","properties":{"title":"Jackson WFO","marker-size":"small","marker-color":"#00b8ff","office":"NWS","index":99,"":""},"geometry":{"type":"Point","coordinates":[-93.315219,37.213058]}},{"type":"Feature","properties":{"title":"Glasgow WFO","marker-size":"small","marker-color":"#00b8ff","office":"NWS","index":103,"":""},"geometry":{"type":"Point","coordinates":[-88.56123,30.3666]}},{"type":"Feature","properties":{"title":"Billings WFO","marker-size":"small","marker-color":"#00b8ff","office":"NWS","index":104,"":""},"geometry":{"type":"Point","coordinates":[-106.629208,48.207732]}},{"type":"Feature","properties":{"title":"Great Falls WFO","marker-size":"small","marker-color":"#00b8ff","office":"NWS","index":105,"":""},"geometry":{"type":"Point","coordinates":[-108.570417,45.750851]}},{"type":"Feature","properties":{"title":"Missoula WFO","marker-size":"small","marker-color":"#00b8ff","office":"NWS","index":106,"":""},"geometry":{"type":"Point","coordinates":[-111.38913,47.461287]}},{"type":"Feature","properties":{"title":"Wilmington WFO","marker-size":"small","marker-color":"#00b8ff","office":"NWS","index":107,"":""},"geometry":{"type":"Point","coordinates":[-114.091082,46.925174]}},{"type":"Feature","properties":{"title":"Newport/Morehead City WFO","marker-size":"small","marker-color":"#00b8ff","office":"NWS","index":109,"":""},"geometry":{"type":"Point","coordinates":[-76.673656,34.722124]}},{"type":"Feature","properties":{"title":"Raleigh/Durham WFO","marker-size":"small","marker-color":"#00b8ff","office":"NWS","index":110,"":""},"geometry":{"type":"Point","coordinates":[-76.879385,34.776266]}},{"type":"Feature","properties":{"title":"Bismarck WFO","marker-size":"small","marker-color":"#00b8ff","office":"NWS","index":112,"":""},"geometry":{"type":"Point","coordinates":[-82.557536,35.593897]}},{"type":"Feature","properties":{"title":"Grand Fork WFO","marker-size":"small","marker-color":"#00b8ff","office":"NWS","index":113,"":""},"geometry":{"type":"Point","coordinates":[-100.763252,46.777308]}},{"type":"Feature","properties":{"title":"Omaha WFO","marker-size":"small","marker-color":"#00b8ff","office":"NWS","index":114,"":""},"geometry":{"type":"Point","coordinates":[-97.098931,47.921813]}},{"type":"Feature","properties":{"title":"Hastings WFO","marker-size":"small","marker-color":"#00b8ff","office":"NWS","index":115,"":""},"geometry":{"type":"Point","coordinates":[-96.367975,41.319301]}},{"type":"Feature","properties":{"title":"North Platte WFO","marker-size":"small","marker-color":"#00b8ff","office":"NWS","index":116,"":""},"geometry":{"type":"Point","coordinates":[-98.383075,40.647564]}},{"type":"Feature","properties":{"title":"Philadelphia/Mt Holly WFO","marker-size":"small","marker-color":"#00b8ff","office":"NWS","index":118,"":""},"geometry":{"type":"Point","coordinates":[-74.003321,40.456531]}},{"type":"Feature","properties":{"title":"El Paso WFO","marker-size":"small","marker-color":"#00b8ff","office":"NWS","index":120,"":""},"geometry":{"type":"Point","coordinates":[-74.615689,40.34795]}},{"type":"Feature","properties":{"title":"Albuquerque WFO","marker-size":"small","marker-color":"#00b8ff","office":"NWS","index":121,"":""},"geometry":{"type":"Point","coordinates":[-106.69822,31.869883]}},{"type":"Feature","properties":{"title":"Elko WFO","marker-size":"small","marker-color":"#00b8ff","office":"NWS","index":122,"":""},"geometry":{"type":"Point","coordinates":[-106.622751,35.036891]}},{"type":"Feature","properties":{"title":"Las Vegas WFO","marker-size":"small","marker-color":"#00b8ff","office":"NWS","index":123,"":""},"geometry":{"type":"Point","coordinates":[-115.739319,40.861922]}},{"type":"Feature","properties":{"title":"Reno WFO","marker-size":"small","marker-color":"#00b8ff","office":"NWS","index":124,"":""},"geometry":{"type":"Point","coordinates":[-115.183607,36.046841]}},{"type":"Feature","properties":{"title":"New York City WFO","marker-size":"small","marker-color":"#00b8ff","office":"NWS","index":125,"":""},"geometry":{"type":"Point","coordinates":[-119.79739,39.569396]}},{"type":"Feature","properties":{"title":"Binghamton WFO","marker-size":"small","marker-color":"#00b8ff","office":"NWS","index":126,"":""},"geometry":{"type":"Point","coordinates":[-72.891264,40.870475]}},{"type":"Feature","properties":{"title":"Albany WFO","marker-size":"small","marker-color":"#00b8ff","office":"NWS","index":127,"":""},"geometry":{"type":"Point","coordinates":[-75.985338,42.210721]}},{"type":"Feature","properties":{"title":"Buffalo WFO","marker-size":"small","marker-color":"#00b8ff","office":"NWS","index":128,"":""},"geometry":{"type":"Point","coordinates":[-73.831452,42.688752]}},{"type":"Feature","properties":{"title":"Cleveland WFO","marker-size":"small","marker-color":"#00b8ff","office":"NWS","index":129,"":""},"geometry":{"type":"Point","coordinates":[-78.719089,42.941708]}},{"type":"Feature","properties":{"title":"Wilmington/Cincinnati WFO","marker-size":"small","marker-color":"#00b8ff","office":"NWS","index":130,"":""},"geometry":{"type":"Point","coordinates":[-81.834892,41.41172]}},{"type":"Feature","properties":{"title":"Ohio RFC","marker-size":"small","marker-color":"#00b8ff","office":"NWS","index":131,"":""},"geometry":{"type":"Point","coordinates":[-83.822653,39.420853]}},{"type":"Feature","properties":{"title":"Oklahoma City WFO","marker-size":"small","marker-color":"#00b8ff","office":"NWS","index":132,"":""},"geometry":{"type":"Point","coordinates":[-83.822653,39.420853]}},{"type":"Feature","properties":{"title":"Tulsa WFO","marker-size":"small","marker-color":"#00b8ff","office":"NWS","index":134,"":""},"geometry":{"type":"Point","coordinates":[-97.440914,35.182945]}},{"type":"Feature","properties":{"title":"Arkansas-Red Basin RFC","marker-size":"small","marker-color":"#00b8ff","office":"NWS","index":135,"":""},"geometry":{"type":"Point","coordinates":[-95.863861,36.148073]}},{"type":"Feature","properties":{"title":"Pendleton WFO","marker-size":"small","marker-color":"#00b8ff","office":"NWS","index":137,"":""},"geometry":{"type":"Point","coordinates":[-118.851779,45.690874]}},{"type":"Feature","properties":{"title":"Portland WFO","marker-size":"small","marker-color":"#00b8ff","office":"NWS","index":139,"":""},"geometry":{"type":"Point","coordinates":[-122.536287,45.561796]}},{"type":"Feature","properties":{"title":"Northwest RFC","marker-size":"small","marker-color":"#00b8ff","office":"NWS","index":140,"":""},"geometry":{"type":"Point","coordinates":[-122.536287,45.561796]}},{"type":"Feature","properties":{"title":"Medford WFO","marker-size":"small","marker-color":"#00b8ff","office":"NWS","index":143,"":""},"geometry":{"type":"Point","coordinates":[-122.88197,42.375759]}},{"type":"Feature","properties":{"title":"Pittsburgh WFO","marker-size":"small","marker-color":"#00b8ff","office":"NWS","index":144,"":""},"geometry":{"type":"Point","coordinates":[-80.218724,40.531525]}},{"type":"Feature","properties":{"title":"State College/Central Pennsylvania WFO","marker-size":"small","marker-color":"#00b8ff","office":"NWS","index":145,"":""},"geometry":{"type":"Point","coordinates":[-77.846836,40.829169]}},{"type":"Feature","properties":{"title":"Middle Atlantic RFC","marker-size":"small","marker-color":"#00b8ff","office":"NWS","index":146,"":""},"geometry":{"type":"Point","coordinates":[-77.846836,40.829169]}},{"type":"Feature","properties":{"title":"San Juan WFO","marker-size":"small","marker-color":"#00b8ff","office":"NWS","index":147,"":""},"geometry":{"type":"Point","coordinates":[-66.008135,18.428645]}},{"type":"Feature","properties":{"title":"Greenville/Spartanburg WFO","marker-size":"small","marker-color":"#00b8ff","office":"NWS","index":149,"":""},"geometry":{"type":"Point","coordinates":[-82.22016,34.884258]}},{"type":"Feature","properties":{"title":"Columbia WFO","marker-size":"small","marker-color":"#00b8ff","office":"NWS","index":150,"":""},"geometry":{"type":"Point","coordinates":[-81.121881,33.945779]}},{"type":"Feature","properties":{"title":"Charleston WFO","marker-size":"small","marker-color":"#00b8ff","office":"NWS","index":152,"":""},"geometry":{"type":"Point","coordinates":[-80.026798,32.896018]}},{"type":"Feature","properties":{"title":"Sioux Falls WFO","marker-size":"small","marker-color":"#00b8ff","office":"NWS","index":153,"":""},"geometry":{"type":"Point","coordinates":[-96.730689,43.588062]}},{"type":"Feature","properties":{"title":"Aberdeen WFO","marker-size":"small","marker-color":"#00b8ff","office":"NWS","index":154,"":""},"geometry":{"type":"Point","coordinates":[-98.433477,45.456185]}},{"type":"Feature","properties":{"title":"Rapid City WFO","marker-size":"small","marker-color":"#00b8ff","office":"NWS","index":155,"":""},"geometry":{"type":"Point","coordinates":[-103.211713,44.071698]}},{"type":"Feature","properties":{"title":"Nashville WFO","marker-size":"small","marker-color":"#00b8ff","office":"NWS","index":156,"":""},"geometry":{"type":"Point","coordinates":[-86.56693,36.247432]}},{"type":"Feature","properties":{"title":"Knoxville/Tri-Cities WFO","marker-size":"small","marker-color":"#00b8ff","office":"NWS","index":157,"":""},"geometry":{"type":"Point","coordinates":[-83.402934,36.167834]}},{"type":"Feature","properties":{"title":"Memphis WFO","marker-size":"small","marker-color":"#00b8ff","office":"NWS","index":158,"":""},"geometry":{"type":"Point","coordinates":[-89.804794,35.1328]}},{"type":"Feature","properties":{"title":"Dallas/Fort Worth WFO","marker-size":"small","marker-color":"#00b8ff","office":"NWS","index":159,"":""},"geometry":{"type":"Point","coordinates":[-97.298776,32.834543]}},{"type":"Feature","properties":{"title":"West Gulf RFC","marker-size":"small","marker-color":"#00b8ff","office":"NWS","index":160,"":""},"geometry":{"type":"Point","coordinates":[-97.298776,32.834543]}},{"type":"Feature","properties":{"title":"San Angelo WFO","marker-size":"small","marker-color":"#00b8ff","office":"NWS","index":161,"":""},"geometry":{"type":"Point","coordinates":[-100.499424,31.369084]}},{"type":"Feature","properties":{"title":"Houston/Galveston WFO","marker-size":"small","marker-color":"#00b8ff","office":"NWS","index":162,"":""},"geometry":{"type":"Point","coordinates":[-95.092145,29.421041]}},{"type":"Feature","properties":{"title":"Austin/San Antonio WFO","marker-size":"small","marker-color":"#00b8ff","office":"NWS","index":164,"":""},"geometry":{"type":"Point","coordinates":[-98.028148,29.70445]}},{"type":"Feature","properties":{"title":"Corpus Christi WFO","marker-size":"small","marker-color":"#00b8ff","office":"NWS","index":165,"":""},"geometry":{"type":"Point","coordinates":[-97.506409,27.77991]}},{"type":"Feature","properties":{"title":"Brownsville WFO","marker-size":"small","marker-color":"#00b8ff","office":"NWS","index":166,"":""},"geometry":{"type":"Point","coordinates":[-97.418349,25.915332]}},{"type":"Feature","properties":{"title":"Amarillo WFO","marker-size":"small","marker-color":"#00b8ff","office":"NWS","index":167,"":""},"geometry":{"type":"Point","coordinates":[-101.708837,35.234434]}},{"type":"Feature","properties":{"title":"Lubbock WFO","marker-size":"small","marker-color":"#00b8ff","office":"NWS","index":168,"":""},"geometry":{"type":"Point","coordinates":[-101.876105,33.529025]}},{"type":"Feature","properties":{"title":"Midland/Odessa WFO","marker-size":"small","marker-color":"#00b8ff","office":"NWS","index":169,"":""},"geometry":{"type":"Point","coordinates":[-102.189292,31.942275]}},{"type":"Feature","properties":{"title":"Salt Lake City WFO","marker-size":"small","marker-color":"#00b8ff","office":"NWS","index":170,"":""},"geometry":{"type":"Point","coordinates":[-111.954787,40.771493]}},{"type":"Feature","properties":{"title":"Colorado Basin RFC","marker-size":"small","marker-color":"#00b8ff","office":"NWS","index":171,"":""},"geometry":{"type":"Point","coordinates":[-111.954787,40.771493]}},{"type":"Feature","properties":{"title":"Baltimore/Washington WFO","marker-size":"small","marker-color":"#00b8ff","office":"NWS","index":172,"":""},"geometry":{"type":"Point","coordinates":[-77.484945,38.974133]}},{"type":"Feature","properties":{"title":"Wakefield WFO","marker-size":"small","marker-color":"#00b8ff","office":"NWS","index":174,"":""},"geometry":{"type":"Point","coordinates":[-77.00067,36.979942]}},{"type":"Feature","properties":{"title":"Blacksburg/Roanoke WFO","marker-size":"small","marker-color":"#00b8ff","office":"NWS","index":175,"":""},"geometry":{"type":"Point","coordinates":[-80.414149,37.204356]}},{"type":"Feature","properties":{"title":"Burlington WFO","marker-size":"small","marker-color":"#00b8ff","office":"NWS","index":176,"":""},"geometry":{"type":"Point","coordinates":[-73.156482,44.468374]}},{"type":"Feature","properties":{"title":"Spokane WFO","marker-size":"small","marker-color":"#00b8ff","office":"NWS","index":182,"":""},"geometry":{"type":"Point","coordinates":[-117.62526,47.681327]}},{"type":"Feature","properties":{"title":"Seattle/Tacoma WFO","marker-size":"small","marker-color":"#00b8ff","office":"NWS","index":184,"":""},"geometry":{"type":"Point","coordinates":[-122.264571,47.684989]}},{"type":"Feature","properties":{"title":"Milwaukee WFO","marker-size":"small","marker-color":"#00b8ff","office":"NWS","index":187,"":""},"geometry":{"type":"Point","coordinates":[-88.548596,42.96733]}},{"type":"Feature","properties":{"title":"La Crosse WFO","marker-size":"small","marker-color":"#00b8ff","office":"NWS","index":188,"":""},"geometry":{"type":"Point","coordinates":[-91.193038,43.822078]}},{"type":"Feature","properties":{"title":"Green Bay WFO","marker-size":"small","marker-color":"#00b8ff","office":"NWS","index":189,"":""},"geometry":{"type":"Point","coordinates":[-88.112042,44.498958]}},{"type":"Feature","properties":{"title":"Charleston WFO","marker-size":"small","marker-color":"#00b8ff","office":"NWS","index":190,"":""},"geometry":{"type":"Point","coordinates":[-81.714939,38.314554]}},{"type":"Feature","properties":{"title":"Riverton WFO","marker-size":"small","marker-color":"#00b8ff","office":"NWS","index":191,"":""},"geometry":{"type":"Point","coordinates":[-108.488165,43.072983]}},{"type":"Feature","properties":{"title":"Cheyenne WFO","marker-size":"small","marker-color":"#00b8ff","office":"NWS","index":192,"":""},"geometry":{"type":"Point","coordinates":[-104.803773,41.152327]}},{"type":"Feature","properties":{"title":"Earth System Research Laboratory (ESRL)Boulder, CO","marker-size":"small","marker-color":"#336699","office":"OAR","index":33,"":""},"geometry":{"type":"Point","coordinates":[-105.261499,39.996905]}},{"type":"Feature","properties":{"title":"Atlantic Oceanographic and Meteorological Laboratory (AOML)Miami, FL","marker-size":"small","marker-color":"#336699","office":"OAR","index":44,"":""},"geometry":{"type":"Point","coordinates":[-80.163364,25.734678]}},{"type":"Feature","properties":{"title":"Air Resources Laboratory (ARL)","marker-size":"small","marker-color":"#336699","office":"OAR","index":82,"":""},"geometry":{"type":"Point","coordinates":[-86.074221,40.829695]}},{"type":"Feature","properties":{"title":"Great Lakes Environmental Research Laboratory (GLERL)","marker-size":"small","marker-color":"#336699","office":"OAR","index":89,"":""},"geometry":{"type":"Point","coordinates":[-87.573616,46.528666]}},{"type":"Feature","properties":{"title":"Geophysical Fluid Dynamics Laboratory (GFDL)","marker-size":"small","marker-color":"#336699","office":"OAR","index":119,"":""},"geometry":{"type":"Point","coordinates":[-74.816387,40.013518]}},{"type":"Feature","properties":{"title":"National Severe Storms Laboratory (NSSL)","marker-size":"small","marker-color":"#336699","office":"OAR","index":133,"":""},"geometry":{"type":"Point","coordinates":[-97.440914,35.182945]}},{"type":"Feature","properties":{"title":"Pacific Marine Environmental Laboratory (PMEL)","marker-size":"small","marker-color":"#336699","office":"OAR","index":136,"":""},"geometry":{"type":"Point","coordinates":[-95.863861,36.148073]}},{"type":"Feature","properties":{"title":"Pacific Marine Environmental Laboratory (PMEL)","marker-size":"small","marker-color":"#336699","office":"OAR","index":179,"":""},"geometry":{"type":"Point","coordinates":[-122.264571,47.684989]}},{"type":"Feature","properties":{"title":"NMS of American Samoa","marker-size":"small","marker-color":"#336699","office":"ONMS","index":12,"":""},"geometry":{"type":"Point","coordinates":[-170.700897,-14.27933]}},{"type":"Feature","properties":{"title":"Channel Islands NMS","marker-size":"small","marker-color":"#336699","office":"ONMS","index":19,"":""},"geometry":{"type":"Point","coordinates":[-119.693837,34.403539]}},{"type":"Feature","properties":{"title":"Monterey Bay NMS","marker-size":"small","marker-color":"#336699","office":"ONMS","index":20,"":""},"geometry":{"type":"Point","coordinates":[-121.895357,36.603274]}},{"type":"Feature","properties":{"title":"Gulf of the Farallones NMS ","marker-size":"small","marker-color":"#336699","office":"ONMS","index":21,"":""},"geometry":{"type":"Point","coordinates":[-122.476262,37.809729]}},{"type":"Feature","properties":{"title":"Cordell Bank NMS ","marker-size":"small","marker-color":"#336699","office":"ONMS","index":22,"":""},"geometry":{"type":"Point","coordinates":[-122.816851,38.060274]}},{"type":"Feature","properties":{"title":"Florida Keys NMS","marker-size":"small","marker-color":"#336699","office":"ONMS","index":41,"":""},"geometry":{"type":"Point","coordinates":[-81.757453,24.566663]}},{"type":"Feature","properties":{"title":"Gray's Reef NMS","marker-size":"small","marker-color":"#336699","office":"ONMS","index":50,"":""},"geometry":{"type":"Point","coordinates":[-81.023131,31.986395]}},{"type":"Feature","properties":{"title":"Papahānaumokuākea MNM ","marker-size":"small","marker-color":"#336699","office":"ONMS","index":53,"":""},"geometry":{"type":"Point","coordinates":[-157.714224,21.282606]}},{"type":"Feature","properties":{"title":"Hawaiian Islands Humpback Whale NMS","marker-size":"small","marker-color":"#336699","office":"ONMS","index":54,"":""},"geometry":{"type":"Point","coordinates":[-157.714224,21.282606]}},{"type":"Feature","properties":{"title":"Stellwagen Bank NMS","marker-size":"small","marker-color":"#336699","office":"ONMS","index":78,"":""},"geometry":{"type":"Point","coordinates":[-70.716246,42.199201]}},{"type":"Feature","properties":{"title":"Thunder Bay NMS","marker-size":"small","marker-color":"#336699","office":"ONMS","index":87,"":""},"geometry":{"type":"Point","coordinates":[-83.47208,42.696984]}},{"type":"Feature","properties":{"title":"Monitor NMS ","marker-size":"small","marker-color":"#336699","office":"ONMS","index":173,"":""},"geometry":{"type":"Point","coordinates":[-76.490132,37.054942]}},{"type":"Feature","properties":{"title":"Olympic Coast NMS","marker-size":"small","marker-color":"#336699","office":"ONMS","index":180,"":""},"geometry":{"type":"Point","coordinates":[-123.431625,48.120631]}},{"type":"Feature","properties":{"title":"University of Illinois","marker-size":"small","marker-color":"#a1acb4","office":"SG","index":193,"":""},"geometry":{"type":"Point","coordinates":[-88.211676,40.10796]}},{"type":"Feature","properties":{"title":"University of Vermont","marker-size":"small","marker-color":"#a1acb4","office":"SG","index":194,"":""},"geometry":{"type":"Point","coordinates":[-73.19418,44.476907]}},{"type":"Feature","properties":{"title":"University of Michigan","marker-size":"small","marker-color":"#a1acb4","office":"SG","index":195,"":""},"geometry":{"type":"Point","coordinates":[-83.742598,42.279376]}},{"type":"Feature","properties":{"title":"University of Minnesota","marker-size":"small","marker-color":"#a1acb4","office":"SG","index":196,"":""},"geometry":{"type":"Point","coordinates":[-92.078986,46.814915]}},{"type":"Feature","properties":{"title":"Stony Brook University’s School of Marine and Atmospheric Sciences","marker-size":"small","marker-color":"#a1acb4","office":"SG","index":197,"":""},"geometry":{"type":"Point","coordinates":[-73.129583,40.919163]}},{"type":"Feature","properties":{"title":"The Ohio State University","marker-size":"small","marker-color":"#a1acb4","office":"SG","index":198,"":""},"geometry":{"type":"Point","coordinates":[-83.044154,39.998241]}},{"type":"Feature","properties":{"title":"Penn State University","marker-size":"small","marker-color":"#a1acb4","office":"SG","index":199,"":""},"geometry":{"type":"Point","coordinates":[-80.15352,42.107626]}},{"type":"Feature","properties":{"title":"University of Wisconsin","marker-size":"small","marker-color":"#a1acb4","office":"SG","index":200,"":""},"geometry":{"type":"Point","coordinates":[-89.41727,43.077903]}},{"type":"Feature","properties":{"title":"University of Connecticut","marker-size":"small","marker-color":"#a1acb4","office":"SG","index":201,"":""},"geometry":{"type":"Point","coordinates":[-72.066762,41.320083]}},{"type":"Feature","properties":{"title":"The University of Maine","marker-size":"small","marker-color":"#a1acb4","office":"SG","index":202,"":""},"geometry":{"type":"Point","coordinates":[-68.67399,44.885887]}},{"type":"Feature","properties":{"title":"Massachusetts Institute of Technology","marker-size":"small","marker-color":"#a1acb4","office":"SG","index":203,"":""},"geometry":{"type":"Point","coordinates":[-71.085939,42.362417]}},{"type":"Feature","properties":{"title":"Woods Hole Oceanographic Institution","marker-size":"small","marker-color":"#a1acb4","office":"SG","index":204,"":""},"geometry":{"type":"Point","coordinates":[-70.645557,41.5332]}},{"type":"Feature","properties":{"title":"University of Rhode Island Graduate School of Oceanography","marker-size":"small","marker-color":"#a1acb4","office":"SG","index":205,"":""},"geometry":{"type":"Point","coordinates":[-71.432341,41.492331]}},{"type":"Feature","properties":{"title":"University of Delaware College of Earth, Ocean, and Environment","marker-size":"small","marker-color":"#a1acb4","office":"SG","index":206,"":""},"geometry":{"type":"Point","coordinates":[-75.749979,39.679576]}},{"type":"Feature","properties":{"title":"University of Maryland Center for Environmental Science","marker-size":"small","marker-color":"#a1acb4","office":"SG","index":207,"":""},"geometry":{"type":"Point","coordinates":[-76.940901,38.979975]}},{"type":"Feature","properties":{"title":"Virginia Institute of Marine Science  The College of William and Mary","marker-size":"small","marker-color":"#a1acb4","office":"SG","index":208,"":""},"geometry":{"type":"Point","coordinates":[-76.500087,37.249318]}},{"type":"Feature","properties":{"title":"Virginia Tech’s Virginia Seafood Agricultural Research and Extension Center (VSAREC)","marker-size":"small","marker-color":"#a1acb4","office":"SG","index":209,"":""},"geometry":{"type":"Point","coordinates":[-76.343567,37.023543]}},{"type":"Feature","properties":{"title":"University of Florida","marker-size":"small","marker-color":"#a1acb4","office":"SG","index":210,"":""},"geometry":{"type":"Point","coordinates":[-82.352899,29.64492]}},{"type":"Feature","properties":{"title":"University of Georgia","marker-size":"small","marker-color":"#a1acb4","office":"SG","index":211,"":""},"geometry":{"type":"Point","coordinates":[-83.374176,33.946643]}},{"type":"Feature","properties":{"title":"North Carolina State University","marker-size":"small","marker-color":"#a1acb4","office":"SG","index":212,"":""},"geometry":{"type":"Point","coordinates":[-78.642169,35.78824]}},{"type":"Feature","properties":{"title":"University of Puerto Rico Mayagüez","marker-size":"small","marker-color":"#a1acb4","office":"SG","index":213,"":""},"geometry":{"type":"Point","coordinates":[-67.485779,18.221895]}},{"type":"Feature","properties":{"title":"South Carolina Sea Grant Consortium","marker-size":"small","marker-color":"#a1acb4","office":"SG","index":214,"":""},"geometry":{"type":"Point","coordinates":[-79.932857,32.784594]}},{"type":"Feature","properties":{"title":"Coastal Carolina University","marker-size":"small","marker-color":"#a1acb4","office":"SG","index":215,"":""},"geometry":{"type":"Point","coordinates":[-79.017424,33.793163]}},{"type":"Feature","properties":{"title":"College of Charleston","marker-size":"small","marker-color":"#a1acb4","office":"SG","index":216,"":""},"geometry":{"type":"Point","coordinates":[-79.937603,32.783224]}},{"type":"Feature","properties":{"title":"Clemson University","marker-size":"small","marker-color":"#a1acb4","office":"SG","index":217,"":""},"geometry":{"type":"Point","coordinates":[-82.834442,34.671259]}},{"type":"Feature","properties":{"title":"Medical University of South Carolina","marker-size":"small","marker-color":"#a1acb4","office":"SG","index":218,"":""},"geometry":{"type":"Point","coordinates":[-79.946823,32.784352]}},{"type":"Feature","properties":{"title":"S.C. Dept. of Natural Resources","marker-size":"small","marker-color":"#a1acb4","office":"SG","index":219,"":""},"geometry":{"type":"Point","coordinates":[-79.992348,32.896906]}},{"type":"Feature","properties":{"title":"The Citadel","marker-size":"small","marker-color":"#a1acb4","office":"SG","index":220,"":""},"geometry":{"type":"Point","coordinates":[-79.957764,32.796617]}},{"type":"Feature","properties":{"title":"University of South Carolina","marker-size":"small","marker-color":"#a1acb4","office":"SG","index":221,"":""},"geometry":{"type":"Point","coordinates":[-81.025719,33.995923]}},{"type":"Feature","properties":{"title":"S.C. State University","marker-size":"small","marker-color":"#a1acb4","office":"SG","index":222,"":""},"geometry":{"type":"Point","coordinates":[-80.851675,33.50614]}},{"type":"Feature","properties":{"title":"Louisiana State University","marker-size":"small","marker-color":"#a1acb4","office":"SG","index":223,"":""},"geometry":{"type":"Point","coordinates":[-91.186994,30.443345]}},{"type":"Feature","properties":{"title":"The University of Southern Mississippi","marker-size":"small","marker-color":"#a1acb4","office":"SG","index":224,"":""},"geometry":{"type":"Point","coordinates":[-88.798651,30.392602]}},{"type":"Feature","properties":{"title":"Texas A&M University","marker-size":"small","marker-color":"#a1acb4","office":"SG","index":225,"":""},"geometry":{"type":"Point","coordinates":[-96.341839,30.61417]}},{"type":"Feature","properties":{"title":"University of Alaska Fairbanks","marker-size":"small","marker-color":"#a1acb4","office":"SG","index":226,"":""},"geometry":{"type":"Point","coordinates":[-147.830936,64.86082]}},{"type":"Feature","properties":{"title":"Scripps Institution of Oceanography University of California, San Diego","marker-size":"small","marker-color":"#a1acb4","office":"SG","index":227,"":""},"geometry":{"type":"Point","coordinates":[-117.237726,32.87271]}},{"type":"Feature","properties":{"title":"University of Southern California","marker-size":"small","marker-color":"#a1acb4","office":"SG","index":228,"":""},"geometry":{"type":"Point","coordinates":[-118.285831,34.021854]}},{"type":"Feature","properties":{"title":"University of Hawaiʻi","marker-size":"small","marker-color":"#a1acb4","office":"SG","index":229,"":""},"geometry":{"type":"Point","coordinates":[-157.816455,21.298651]}},{"type":"Feature","properties":{"title":"Oregon State University","marker-size":"small","marker-color":"#a1acb4","office":"SG","index":230,"":""},"geometry":{"type":"Point","coordinates":[-123.275085,44.559739]}},{"type":"Feature","properties":{"title":"University of Washington College of the Environment","marker-size":"small","marker-color":"#a1acb4","office":"SG","index":231,"":""},"geometry":{"type":"Point","coordinates":[-122.30578,47.653638]}},{"type":"Feature","properties":{"title":"New Jersey Sea Grant Consortium","marker-size":"small","marker-color":"#a1acb4","office":"SG","index":232,"":""},"geometry":{"type":"Point","coordinates":[-74.003102,40.457462]}},{"type":"Feature","properties":{"title":"Brookdale Community College","marker-size":"small","marker-color":"#a1acb4","office":"SG","index":233,"":""},"geometry":{"type":"Point","coordinates":[-74.131905,40.326125]}},{"type":"Feature","properties":{"title":"Burlington County College","marker-size":"small","marker-color":"#a1acb4","office":"SG","index":234,"":""},"geometry":{"type":"Point","coordinates":[-74.640423,39.966548]}},{"type":"Feature","properties":{"title":"The College of New Jersey","marker-size":"small","marker-color":"#a1acb4","office":"SG","index":235,"":""},"geometry":{"type":"Point","coordinates":[-74.777144,40.27003]}},{"type":"Feature","properties":{"title":"County College of Morris","marker-size":"small","marker-color":"#a1acb4","office":"SG","index":236,"":""},"geometry":{"type":"Point","coordinates":[-74.581378,40.856695]}},{"type":"Feature","properties":{"title":"Georgian Court University","marker-size":"small","marker-color":"#a1acb4","office":"SG","index":237,"":""},"geometry":{"type":"Point","coordinates":[-74.221518,40.098379]}},{"type":"Feature","properties":{"title":"Kean University","marker-size":"small","marker-color":"#a1acb4","office":"SG","index":238,"":""},"geometry":{"type":"Point","coordinates":[-74.235569,40.681039]}},{"type":"Feature","properties":{"title":"Monmouth University","marker-size":"small","marker-color":"#a1acb4","office":"SG","index":239,"":""},"geometry":{"type":"Point","coordinates":[-74.003419,40.281731]}},{"type":"Feature","properties":{"title":"Montclair State University","marker-size":"small","marker-color":"#a1acb4","office":"SG","index":240,"":""},"geometry":{"type":"Point","coordinates":[-74.197622,40.860982]}},{"type":"Feature","properties":{"title":"New Jersey City University","marker-size":"small","marker-color":"#a1acb4","office":"SG","index":241,"":""},"geometry":{"type":"Point","coordinates":[-74.086271,40.708777]}},{"type":"Feature","properties":{"title":"New Jersey Institute of Technology","marker-size":"small","marker-color":"#a1acb4","office":"SG","index":242,"":""},"geometry":{"type":"Point","coordinates":[-74.178919,40.740447]}},{"type":"Feature","properties":{"title":"Ocean County College","marker-size":"small","marker-color":"#a1acb4","office":"SG","index":243,"":""},"geometry":{"type":"Point","coordinates":[-74.16354,40.005172]}},{"type":"Feature","properties":{"title":"Princeton University","marker-size":"small","marker-color":"#a1acb4","office":"SG","index":244,"":""},"geometry":{"type":"Point","coordinates":[-74.651984,40.35071]}},{"type":"Feature","properties":{"title":"Ramapo College","marker-size":"small","marker-color":"#a1acb4","office":"SG","index":245,"":""},"geometry":{"type":"Point","coordinates":[-74.176609,41.083947]}},{"type":"Feature","properties":{"title":"Richard Stockton College of NJ","marker-size":"small","marker-color":"#a1acb4","office":"SG","index":246,"":""},"geometry":{"type":"Point","coordinates":[-74.535351,39.487985]}},{"type":"Feature","properties":{"title":"Rider University","marker-size":"small","marker-color":"#a1acb4","office":"SG","index":247,"":""},"geometry":{"type":"Point","coordinates":[-74.736907,40.279812]}},{"type":"Feature","properties":{"title":"Rowan University","marker-size":"small","marker-color":"#a1acb4","office":"SG","index":248,"":""},"geometry":{"type":"Point","coordinates":[-75.120295,39.710562]}},{"type":"Feature","properties":{"title":"Rutgers University","marker-size":"small","marker-color":"#a1acb4","office":"SG","index":249,"":""},"geometry":{"type":"Point","coordinates":[-74.437157,40.479093]}},{"type":"Feature","properties":{"title":"Seton Hall University","marker-size":"small","marker-color":"#a1acb4","office":"SG","index":250,"":""},"geometry":{"type":"Point","coordinates":[-74.2467,40.743672]}},{"type":"Feature","properties":{"title":"Stevens Institute of Technology","marker-size":"small","marker-color":"#a1acb4","office":"SG","index":251,"":""},"geometry":{"type":"Point","coordinates":[-74.629447,40.177431]}},{"type":"Feature","properties":{"title":"Union County College","marker-size":"small","marker-color":"#a1acb4","office":"SG","index":252,"":""},"geometry":{"type":"Point","coordinates":[-74.322295,40.66706]}},{"type":"Feature","properties":{"title":"William Paterson University","marker-size":"small","marker-color":"#a1acb4","office":"SG","index":253,"":""},"geometry":{"type":"Point","coordinates":[-74.198388,40.945901]}},{"type":"Feature","properties":{"title":"Academy of Natural Sciences","marker-size":"small","marker-color":"#a1acb4","office":"SG","index":254,"":""},"geometry":{"type":"Point","coordinates":[-75.171129,39.957262]}},{"type":"Feature","properties":{"title":"Marine Academy of Science & Technology","marker-size":"small","marker-color":"#a1acb4","office":"SG","index":255,"":""},"geometry":{"type":"Point","coordinates":[-74.000562,40.460001]}},{"type":"Feature","properties":{"title":"The University of New Hampshire","marker-size":"small","marker-color":"#a1acb4","office":"SG","index":256,"":""},"geometry":{"type":"Point","coordinates":[-70.938036,43.136116]}},{"type":"Feature","properties":{"title":"South Carolina Department of Natural Resources","marker-size":"small","marker-color":"#a1acb4","office":"NERRS","index":257,"":""},"geometry":{"type":"Point","coordinates":[-81.033919,33.998152]}},{"type":"Feature","properties":{"title":"Florida Department of Environmental Protection","marker-size":"small","marker-color":"#a1acb4","office":"NERRS","index":258,"":""},"geometry":{"type":"Point","coordinates":[-84.887941,29.729943]}},{"type":"Feature","properties":{"title":"Maryland Deparment of Natural Resources","marker-size":"small","marker-color":"#a1acb4","office":"NERRS","index":259,"":""},"geometry":{"type":"Point","coordinates":[-76.505489,38.982935]}},{"type":"Feature","properties":{"title":"Virginia Institute of Marine Science  The College of William and Mary","marker-size":"small","marker-color":"#a1acb4","office":"NERRS","index":260,"":""},"geometry":{"type":"Point","coordinates":[-76.500087,37.249318]}},{"type":"Feature","properties":{"title":"Delaware Department of Natural Resources and Environmental Control","marker-size":"small","marker-color":"#a1acb4","office":"NERRS","index":261,"":""},"geometry":{"type":"Point","coordinates":[-75.443419,39.102869]}},{"type":"Feature","properties":{"title":"California Department of Fish and Wildlife","marker-size":"small","marker-color":"#a1acb4","office":"NERRS","index":262,"":""},"geometry":{"type":"Point","coordinates":[-121.730315,36.81943]}},{"type":"Feature","properties":{"title":"Mississippi Department of Marine Resources","marker-size":"small","marker-color":"#a1acb4","office":"NERRS","index":263,"":""},"geometry":{"type":"Point","coordinates":[-88.425798,30.428229]}},{"type":"Feature","properties":{"title":"New Hampshire Fish and Game Department","marker-size":"small","marker-color":"#a1acb4","office":"NERRS","index":264,"":""},"geometry":{"type":"Point","coordinates":[-70.89648,43.054577]}},{"type":"Feature","properties":{"title":"Florida Department of Environmental Protection","marker-size":"small","marker-color":"#a1acb4","office":"NERRS","index":265,"":""},"geometry":{"type":"Point","coordinates":[-81.329523,30.022831]}},{"type":"Feature","properties":{"title":"New York State Department of Environmental Conservation","marker-size":"small","marker-color":"#a1acb4","office":"NERRS","index":266,"":""},"geometry":{"type":"Point","coordinates":[-73.930349,41.84042]}},{"type":"Feature","properties":{"title":"Rutgers, The State University of New Jersey","marker-size":"small","marker-color":"#a1acb4","office":"NERRS","index":267,"":""},"geometry":{"type":"Point","coordinates":[-74.436088,40.478969]}},{"type":"Feature","properties":{"title":"Alaska Department of Fish and Game","marker-size":"small","marker-color":"#a1acb4","office":"NERRS","index":268,"":""},"geometry":{"type":"Point","coordinates":[-151.540601,59.641737]}},{"type":"Feature","properties":{"title":"University of Texas Marine Science Institute","marker-size":"small","marker-color":"#a1acb4","office":"NERRS","index":269,"":""},"geometry":{"type":"Point","coordinates":[-97.053706,27.837387]}},{"type":"Feature","properties":{"title":"Rhode Island Department of Environmental Management","marker-size":"small","marker-color":"#a1acb4","office":"NERRS","index":270,"":""},"geometry":{"type":"Point","coordinates":[-71.308798,41.625871]}},{"type":"Feature","properties":{"title":"North Carolina Department of Environment and Natural Resources","marker-size":"small","marker-color":"#a1acb4","office":"NERRS","index":271,"":""},"geometry":{"type":"Point","coordinates":[-76.673656,34.722124]}},{"type":"Feature","properties":{"title":"University of South Carolina Belle W. Baruch Institute for Marine and Coastal Sciences","marker-size":"small","marker-color":"#a1acb4","office":"NERRS","index":272,"":""},"geometry":{"type":"Point","coordinates":[-79.280749,33.368305]}},{"type":"Feature","properties":{"title":"Ohio Department of Natural Resources, Division of Wildlife","marker-size":"small","marker-color":"#a1acb4","office":"NERRS","index":273,"":""},"geometry":{"type":"Point","coordinates":[-82.507409,41.379822]}},{"type":"Feature","properties":{"title":"Washington State Department of Ecology","marker-size":"small","marker-color":"#a1acb4","office":"NERRS","index":274,"":""},"geometry":{"type":"Point","coordinates":[-122.482423,48.494388]}},{"type":"Feature","properties":{"title":"Florida Department of Environmental Protection's Office of Coastal and Aquatic Managed Areas (CAMA)","marker-size":"small","marker-color":"#a1acb4","office":"NERRS","index":275,"":""},"geometry":{"type":"Point","coordinates":[-81.700395,26.052363]}},{"type":"Feature","properties":{"title":"San Francisco State University","marker-size":"small","marker-color":"#a1acb4","office":"NERRS","index":276,"":""},"geometry":{"type":"Point","coordinates":[-122.44849,37.889544]}},{"type":"Feature","properties":{"title":"Georgia Department of Natural Resources Wildlife Resources Division","marker-size":"small","marker-color":"#a1acb4","office":"NERRS","index":277,"":""},"geometry":{"type":"Point","coordinates":[-81.427073,31.386776]}},{"type":"Feature","properties":{"title":"Oregon Department of State Lands","marker-size":"small","marker-color":"#a1acb4","office":"NERRS","index":278,"":""},"geometry":{"type":"Point","coordinates":[-124.337435,43.294415]}},{"type":"Feature","properties":{"title":"California State Parks","marker-size":"small","marker-color":"#a1acb4","office":"NERRS","index":279,"":""},"geometry":{"type":"Point","coordinates":[-117.127219,32.575521]}},{"type":"Feature","properties":{"title":"Massachusetts Department of Conservation and Recreation","marker-size":"small","marker-color":"#a1acb4","office":"NERRS","index":280,"":""},"geometry":{"type":"Point","coordinates":[-70.526058,41.582794]}},{"type":"Feature","properties":{"title":"Alabama Department of Conservation and Natural Resources (ADCNR) ","marker-size":"small","marker-color":"#a1acb4","office":"NERRS","index":281,"":""},"geometry":{"type":"Point","coordinates":[-87.833199,30.420699]}},{"type":"Feature","properties":{"title":"Maine Department of Conservation","marker-size":"small","marker-color":"#a1acb4","office":"NERRS","index":282,"":""},"geometry":{"type":"Point","coordinates":[-70.55281,43.337417]}},{"type":"Feature","properties":{"title":"Puerto Rico Department of Natural and Environmental Resources","marker-size":"small","marker-color":"#a1acb4","office":"NERRS","index":283,"":""},"geometry":{"type":"Point","coordinates":[-66.218829,17.97459]}},{"type":"Feature","properties":{"title":"University of Wisconsin Extension","marker-size":"small","marker-color":"#a1acb4","office":"NERRS","index":284,"":""},"geometry":{"type":"Point","coordinates":[-92.067613,46.722657]}},{"type":"Feature","properties":{"title":"Columbia University","marker-size":"small","marker-color":"#a1acb4","office":"OAR","index":285,"":""},"geometry":{"type":"Point","coordinates":[-73.915775,41.004175]}},{"type":"Feature","properties":{"title":"Woods Hole Oceanographic Institution","marker-size":"small","marker-color":"#a1acb4","office":"OAR","index":286,"":""},"geometry":{"type":"Point","coordinates":[-70.653769,41.53394]}},{"type":"Feature","properties":{"title":"Princeton University","marker-size":"small","marker-color":"#a1acb4","office":"OAR","index":287,"":""},"geometry":{"type":"Point","coordinates":[-74.615689,40.34795]}},{"type":"Feature","properties":{"title":"University of Alaska Fairbanks","marker-size":"small","marker-color":"#a1acb4","office":"OAR","index":288,"":""},"geometry":{"type":"Point","coordinates":[-147.851931,64.858958]}},{"type":"Feature","properties":{"title":"University of Michigan","marker-size":"small","marker-color":"#a1acb4","office":"OAR","index":289,"":""},"geometry":{"type":"Point","coordinates":[-83.734684,42.276719]}},{"type":"Feature","properties":{"title":"Grand Valley State University","marker-size":"small","marker-color":"#a1acb4","office":"OAR","index":290,"":""},"geometry":{"type":"Point","coordinates":[-85.925849,42.97098]}},{"type":"Feature","properties":{"title":"Michigan State University","marker-size":"small","marker-color":"#a1acb4","office":"OAR","index":291,"":""},"geometry":{"type":"Point","coordinates":[-84.481189,42.729588]}},{"type":"Feature","properties":{"title":"Ohio State University","marker-size":"small","marker-color":"#a1acb4","office":"OAR","index":292,"":""},"geometry":{"type":"Point","coordinates":[-83.008575,39.99772]}},{"type":"Feature","properties":{"title":"Pennsylvania State University","marker-size":"small","marker-color":"#a1acb4","office":"OAR","index":293,"":""},"geometry":{"type":"Point","coordinates":[-75.15693,39.977665]}},{"type":"Feature","properties":{"title":"Stony Brook University","marker-size":"small","marker-color":"#a1acb4","office":"OAR","index":294,"":""},"geometry":{"type":"Point","coordinates":[-73.129583,40.919163]}},{"type":"Feature","properties":{"title":"University of Illinois","marker-size":"small","marker-color":"#a1acb4","office":"OAR","index":295,"":""},"geometry":{"type":"Point","coordinates":[-88.211676,40.10796]}},{"type":"Feature","properties":{"title":"University of Minnesota","marker-size":"small","marker-color":"#a1acb4","office":"OAR","index":296,"":""},"geometry":{"type":"Point","coordinates":[-92.078986,46.814915]}},{"type":"Feature","properties":{"title":"University of Toledo","marker-size":"small","marker-color":"#a1acb4","office":"OAR","index":297,"":""},"geometry":{"type":"Point","coordinates":[-83.613724,41.659878]}},{"type":"Feature","properties":{"title":"University of Wisconsin","marker-size":"small","marker-color":"#a1acb4","office":"OAR","index":298,"":""},"geometry":{"type":"Point","coordinates":[-89.41727,43.077903]}},{"type":"Feature","properties":{"title":"University of Miami","marker-size":"small","marker-color":"#a1acb4","office":"OAR","index":299,"":""},"geometry":{"type":"Point","coordinates":[-80.164933,25.735797]}},{"type":"Feature","properties":{"title":"Florida Atlantic University","marker-size":"small","marker-color":"#a1acb4","office":"OAR","index":300,"":""},"geometry":{"type":"Point","coordinates":[-80.341891,27.487987]}},{"type":"Feature","properties":{"title":"Florida International University","marker-size":"small","marker-color":"#a1acb4","office":"OAR","index":301,"":""},"geometry":{"type":"Point","coordinates":[-80.379765,25.757149]}},{"type":"Feature","properties":{"title":"Florida State University","marker-size":"small","marker-color":"#a1acb4","office":"OAR","index":302,"":""},"geometry":{"type":"Point","coordinates":[-84.321838,30.423162]}},{"type":"Feature","properties":{"title":"Nova Southeastern University","marker-size":"small","marker-color":"#a1acb4","office":"OAR","index":303,"":""},"geometry":{"type":"Point","coordinates":[-81.441543,28.481612]}},{"type":"Feature","properties":{"title":"University of Puerto Rico","marker-size":"small","marker-color":"#a1acb4","office":"OAR","index":304,"":""},"geometry":{"type":"Point","coordinates":[-67.485779,18.221895]}},{"type":"Feature","properties":{"title":"University of Florida","marker-size":"small","marker-color":"#a1acb4","office":"OAR","index":305,"":""},"geometry":{"type":"Point","coordinates":[-82.352899,29.64492]}},{"type":"Feature","properties":{"title":"University of South Florida","marker-size":"small","marker-color":"#a1acb4","office":"OAR","index":306,"":""},"geometry":{"type":"Point","coordinates":[-82.416774,28.058189]}},{"type":"Feature","properties":{"title":"University of the Virgin Islands","marker-size":"small","marker-color":"#a1acb4","office":"OAR","index":307,"":""},"geometry":{"type":"Point","coordinates":[-64.97718,18.344859]}},{"type":"Feature","properties":{"title":"Scripps Institution of Oceanography University of California, San Diego","marker-size":"small","marker-color":"#a1acb4","office":"OAR","index":308,"":""},"geometry":{"type":"Point","coordinates":[-117.237726,32.87271]}},{"type":"Feature","properties":{"title":"Humboldt State University","marker-size":"small","marker-color":"#a1acb4","office":"OAR","index":309,"":""},"geometry":{"type":"Point","coordinates":[-124.081408,40.874126]}},{"type":"Feature","properties":{"title":"California State University, Los Angeles","marker-size":"small","marker-color":"#a1acb4","office":"OAR","index":310,"":""},"geometry":{"type":"Point","coordinates":[-118.171587,34.062324]}},{"type":"Feature","properties":{"title":"University of California, Davis","marker-size":"small","marker-color":"#a1acb4","office":"OAR","index":311,"":""},"geometry":{"type":"Point","coordinates":[-121.755028,38.539844]}},{"type":"Feature","properties":{"title":"University of California, Los Angeles","marker-size":"small","marker-color":"#a1acb4","office":"OAR","index":312,"":""},"geometry":{"type":"Point","coordinates":[-118.443238,34.070666]}},{"type":"Feature","properties":{"title":"University of California, San Diego","marker-size":"small","marker-color":"#a1acb4","office":"OAR","index":313,"":""},"geometry":{"type":"Point","coordinates":[-117.238326,32.875496]}},{"type":"Feature","properties":{"title":"University of California, Santa Barbara","marker-size":"small","marker-color":"#a1acb4","office":"OAR","index":314,"":""},"geometry":{"type":"Point","coordinates":[-119.849698,34.413587]}},{"type":"Feature","properties":{"title":"University of California, Santa Cruz","marker-size":"small","marker-color":"#a1acb4","office":"OAR","index":315,"":""},"geometry":{"type":"Point","coordinates":[-122.054318,36.977624]}},{"type":"Feature","properties":{"title":"University of Oklahoma","marker-size":"small","marker-color":"#a1acb4","office":"OAR","index":316,"":""},"geometry":{"type":"Point","coordinates":[-97.439975,35.18188]}},{"type":"Feature","properties":{"title":"Oregon State University","marker-size":"small","marker-color":"#a1acb4","office":"OAR","index":317,"":""},"geometry":{"type":"Point","coordinates":[-124.047217,44.621998]}},{"type":"Feature","properties":{"title":"Woods Hole Oceanographic Institution","marker-size":"small","marker-color":"#a1acb4","office":"OAR","index":318,"":""},"geometry":{"type":"Point","coordinates":[-70.653769,41.53394]}},{"type":"Feature","properties":{"title":"The Gulf of Maine Research Institute","marker-size":"small","marker-color":"#a1acb4","office":"OAR","index":319,"":""},"geometry":{"type":"Point","coordinates":[-70.256622,43.651705]}},{"type":"Feature","properties":{"title":"Rutgers University","marker-size":"small","marker-color":"#a1acb4","office":"OAR","index":320,"":""},"geometry":{"type":"Point","coordinates":[-74.437157,40.479093]}},{"type":"Feature","properties":{"title":"University of Maine","marker-size":"small","marker-color":"#a1acb4","office":"OAR","index":321,"":""},"geometry":{"type":"Point","coordinates":[-69.567585,43.944565]}},{"type":"Feature","properties":{"title":"University of Maryland Center for Environmental Science","marker-size":"small","marker-color":"#a1acb4","office":"OAR","index":322,"":""},"geometry":{"type":"Point","coordinates":[-76.940901,38.979975]}},{"type":"Feature","properties":{"title":"Florida Atlantic University","marker-size":"small","marker-color":"#a1acb4","office":"OAR","index":323,"":""},"geometry":{"type":"Point","coordinates":[-80.341891,27.487987]}},{"type":"Feature","properties":{"title":"University of North Carolina Wilmington","marker-size":"small","marker-color":"#a1acb4","office":"OAR","index":324,"":""},"geometry":{"type":"Point","coordinates":[-77.879179,34.227425]}},{"type":"Feature","properties":{"title":"SRI International","marker-size":"small","marker-color":"#a1acb4","office":"OAR","index":325,"":""},"geometry":{"type":"Point","coordinates":[-82.6308,27.762386]}},{"type":"Feature","properties":{"title":"University of Miami","marker-size":"small","marker-color":"#a1acb4","office":"OAR","index":326,"":""},"geometry":{"type":"Point","coordinates":[-80.164933,25.735797]}},{"type":"Feature","properties":{"title":"Colorado State University","marker-size":"small","marker-color":"#a1acb4","office":"OAR","index":327,"":""},"geometry":{"type":"Point","coordinates":[-105.145293,40.589175]}},{"type":"Feature","properties":{"title":"University of Maryland","marker-size":"small","marker-color":"#a1acb4","office":"OAR","index":328,"":""},"geometry":{"type":"Point","coordinates":[-76.944134,38.988686]}},{"type":"Feature","properties":{"title":"University of Wisconsin","marker-size":"small","marker-color":"#a1acb4","office":"OAR","index":329,"":""},"geometry":{"type":"Point","coordinates":[-89.406222,43.071017]}},{"type":"Feature","properties":{"title":"Oregon State University","marker-size":"small","marker-color":"#a1acb4","office":"OAR","index":330,"":""},"geometry":{"type":"Point","coordinates":[-123.275436,44.564565]}},{"type":"Feature","properties":{"title":"Howard University","marker-size":"small","marker-color":"#a1acb4","office":"EPP","index":331,"":""},"geometry":{"type":"Point","coordinates":[-77.021947,38.914725]}},{"type":"Feature","properties":{"title":"Jackson State University ","marker-size":"small","marker-color":"#a1acb4","office":"EPP","index":332,"":""},"geometry":{"type":"Point","coordinates":[-90.179869,32.29792]}},{"type":"Feature","properties":{"title":"University of Puerto Rico at Mayaguez","marker-size":"small","marker-color":"#a1acb4","office":"EPP","index":333,"":""},"geometry":{"type":"Point","coordinates":[-67.485779,18.221895]}},{"type":"Feature","properties":{"title":"University of Texas at El Paso","marker-size":"small","marker-color":"#a1acb4","office":"EPP","index":334,"":""},"geometry":{"type":"Point","coordinates":[-106.504291,31.770526]}},{"type":"Feature","properties":{"title":"University of Maryland College Park","marker-size":"small","marker-color":"#a1acb4","office":"EPP","index":335,"":""},"geometry":{"type":"Point","coordinates":[-76.944134,38.988686]}},{"type":"Feature","properties":{"title":"State University of New York at Albany","marker-size":"small","marker-color":"#a1acb4","office":"EPP","index":336,"":""},"geometry":{"type":"Point","coordinates":[-73.831452,42.688752]}},{"type":"Feature","properties":{"title":"Laguardia Community College","marker-size":"small","marker-color":"#a1acb4","office":"EPP","index":338,"":""},"geometry":{"type":"Point","coordinates":[-73.935104,40.744918]}},{"type":"Feature","properties":{"title":"Columbia University","marker-size":"small","marker-color":"#a1acb4","office":"EPP","index":339,"":""},"geometry":{"type":"Point","coordinates":[-73.96376,40.807986]}},{"type":"Feature","properties":{"title":"Hostos Community College","marker-size":"small","marker-color":"#a1acb4","office":"EPP","index":340,"":""},"geometry":{"type":"Point","coordinates":[-73.927503,40.818076]}},{"type":"Feature","properties":{"title":"California State University, Los Angeles","marker-size":"small","marker-color":"#a1acb4","office":"EPP","index":341,"":""},"geometry":{"type":"Point","coordinates":[-118.171587,34.062324]}},{"type":"Feature","properties":{"title":"Hampton University","marker-size":"small","marker-color":"#a1acb4","office":"EPP","index":342,"":""},"geometry":{"type":"Point","coordinates":[-76.342778,37.025852]}},{"type":"Feature","properties":{"title":"University of Puerto Rico at Mayaguez","marker-size":"small","marker-color":"#a1acb4","office":"EPP","index":343,"":""},"geometry":{"type":"Point","coordinates":[-67.485779,18.221895]}},{"type":"Feature","properties":{"title":"University of Maryland at Baltimore County","marker-size":"small","marker-color":"#a1acb4","office":"EPP","index":344,"":""},"geometry":{"type":"Point","coordinates":[-76.715641,39.254054]}},{"type":"Feature","properties":{"title":"Bowie State University","marker-size":"small","marker-color":"#a1acb4","office":"EPP","index":345,"":""},"geometry":{"type":"Point","coordinates":[-76.76282,39.016307]}},{"type":"Feature","properties":{"title":"Colorado State University","marker-size":"small","marker-color":"#a1acb4","office":"EPP","index":346,"":""},"geometry":{"type":"Point","coordinates":[-105.086586,40.573471]}},{"type":"Feature","properties":{"title":"University of Wisconsin","marker-size":"small","marker-color":"#a1acb4","office":"EPP","index":347,"":""},"geometry":{"type":"Point","coordinates":[-89.386694,43.07295]}},{"type":"Feature","properties":{"title":"Florida A&M University","marker-size":"small","marker-color":"#a1acb4","office":"EPP","index":348,"":""},"geometry":{"type":"Point","coordinates":[-84.285595,30.42831]}},{"type":"Feature","properties":{"title":"Creighton University","marker-size":"small","marker-color":"#a1acb4","office":"EPP","index":349,"":""},"geometry":{"type":"Point","coordinates":[-95.947074,41.264826]}},{"type":"Feature","properties":{"title":"Delaware State University","marker-size":"small","marker-color":"#a1acb4","office":"EPP","index":350,"":""},"geometry":{"type":"Point","coordinates":[-75.539782,39.188487]}},{"type":"Feature","properties":{"title":"Jackson State University","marker-size":"small","marker-color":"#a1acb4","office":"EPP","index":351,"":""},"geometry":{"type":"Point","coordinates":[-90.180489,32.29869]}},{"type":"Feature","properties":{"title":"Texas A&M University Corpus Christi","marker-size":"small","marker-color":"#a1acb4","office":"EPP","index":352,"":""},"geometry":{"type":"Point","coordinates":[-97.326244,27.716516]}},{"type":"Feature","properties":{"title":"University of Texas Brownsville","marker-size":"small","marker-color":"#a1acb4","office":"EPP","index":353,"":""},"geometry":{"type":"Point","coordinates":[-97.492291,25.900678]}},{"type":"Feature","properties":{"title":"North Carolina A&T State University","marker-size":"small","marker-color":"#a1acb4","office":"EPP","index":354,"":""},"geometry":{"type":"Point","coordinates":[-79.772168,36.072367]}},{"type":"Feature","properties":{"title":"University of Alaska Southeast","marker-size":"small","marker-color":"#a1acb4","office":"EPP","index":355,"":""},"geometry":{"type":"Point","coordinates":[-134.640164,58.381961]}},{"type":"Feature","properties":{"title":"California State University-Fresno","marker-size":"small","marker-color":"#a1acb4","office":"EPP","index":356,"":""},"geometry":{"type":"Point","coordinates":[-119.784729,36.74197]}},{"type":"Feature","properties":{"title":"The City College of City University of New York","marker-size":"small","marker-color":"#a1acb4","office":"EPP","index":357,"":""},"geometry":{"type":"Point","coordinates":[-73.950429,40.818917]}},{"type":"Feature","properties":{"title":"Fisk University","marker-size":"small","marker-color":"#a1acb4","office":"EPP","index":358,"":""},"geometry":{"type":"Point","coordinates":[-86.803445,36.166659]}},{"type":"Feature","properties":{"title":"North Carolina State University","marker-size":"small","marker-color":"#a1acb4","office":"EPP","index":359,"":""},"geometry":{"type":"Point","coordinates":[-78.642669,35.78551]}},{"type":"Feature","properties":{"title":"University of Minnesota","marker-size":"small","marker-color":"#a1acb4","office":"EPP","index":360,"":""},"geometry":{"type":"Point","coordinates":[-93.23187,44.974514]}},{"type":"Feature","properties":{"title":"University of Maryland Eastern Shore","marker-size":"small","marker-color":"#a1acb4","office":"EPP","index":361,"":""},"geometry":{"type":"Point","coordinates":[-75.694954,38.209785]}},{"type":"Feature","properties":{"title":"Delaware State University","marker-size":"small","marker-color":"#a1acb4","office":"EPP","index":362,"":""},"geometry":{"type":"Point","coordinates":[-75.539782,39.188487]}},{"type":"Feature","properties":{"title":"Hampton University","marker-size":"small","marker-color":"#a1acb4","office":"EPP","index":363,"":""},"geometry":{"type":"Point","coordinates":[-76.342778,37.025852]}},{"type":"Feature","properties":{"title":"Savannah State University","marker-size":"small","marker-color":"#a1acb4","office":"EPP","index":364,"":""},"geometry":{"type":"Point","coordinates":[-81.050739,32.030814]}},{"type":"Feature","properties":{"title":"Oregon State University","marker-size":"small","marker-color":"#a1acb4","office":"EPP","index":365,"":""},"geometry":{"type":"Point","coordinates":[-124.047217,44.621998]}},{"type":"Feature","properties":{"title":"University of Maryland Center for Environmental Science Institute of Marine and Environmental Technology","marker-size":"small","marker-color":"#a1acb4","office":"EPP","index":366,"":""},"geometry":{"type":"Point","coordinates":[-76.606544,39.286797]}},{"type":"Feature","properties":{"title":"University of Miami Rosenstiel School of Marine and Atmospheric Sciences","marker-size":"small","marker-color":"#a1acb4","office":"EPP","index":367,"":""},"geometry":{"type":"Point","coordinates":[-80.164933,25.735797]}},{"type":"Feature","properties":{"title":"Humboldt State University","marker-size":"small","marker-color":"#a1acb4","office":"NMFS","index":368,"":""},"geometry":{"type":"Point","coordinates":[-124.081408,40.874126]}},{"type":"Feature","properties":{"title":"Mississippi State University","marker-size":"small","marker-color":"#a1acb4","office":"OAR","index":369,"":""},"geometry":{"type":"Point","coordinates":[-89.614743,30.373145]}},{"type":"Feature","properties":{"title":"University of Southern Mississippi","marker-size":"small","marker-color":"#a1acb4","office":"OAR","index":370,"":""},"geometry":{"type":"Point","coordinates":[-89.614727,30.373145]}},{"type":"Feature","properties":{"title":"Florida State University","marker-size":"small","marker-color":"#a1acb4","office":"OAR","index":371,"":""},"geometry":{"type":"Point","coordinates":[-84.321838,30.423162]}},{"type":"Feature","properties":{"title":"Louisiana State University","marker-size":"small","marker-color":"#a1acb4","office":"OAR","index":372,"":""},"geometry":{"type":"Point","coordinates":[120.650211,28.29815]}},{"type":"Feature","properties":{"title":"Dauphin Island Sea Laboratory","marker-size":"small","marker-color":"#a1acb4","office":"OAR","index":373},"geometry":{"type":"Point","coordinates":[-88.077669,30.249795]}}]}
